{
	"coordinatesCity": [
    {
    	"name":"danang",
    	"lat":"16.047079",
    	"lng":"108.206230",
    	"title":"Đà Nẵng, Việt Nam"
    },
    {
    	"name":"hanoi",
    	"lat":"21.027763",
    	"lng":"105.834160",
    	"title":"Hà Nội, Việt Nam"
    },
    {
    	"name":"hochiminh",
    	"lat":"10.762622",
    	"lng":"106.660172",
    	"title":"Hồ Chí Minh, Việt Nam"
    },
    {
    	"name":"angiang",
    	"lat":"10.521584",
    	"lng":"105.125896",
    	"title":"An Giang, Việt Nam"
    },
    {
    	"name":"bariavungtau",
    	"lat":"10.50857380403518",
    	"lng":"107.17963700000001",
    	"title":"Bà Rịa - Vũng Tàu, Việt Nam"
    },
    {
    	"name":"bacgiang",
    	"lat":"21.301495",
    	"lng":"106.629130",
    	"title":"Bắc Giang, Việt Nam"
    },
    {
    	"name":"backan",
    	"lat":"22.14701",
    	"lng":"105.83481",
    	"title":"Bắc Kạn, Việt Nam"
    },
    {
    	"name":"baclieu",
    	"lat":"9.251556",
    	"lng":"105.513649",
    	"title":"Bạc Liêu, Việt Nam"
    },
    {
    	"name":"bacninh",
    	"lat":"21.18608",
    	"lng":"106.07631",
    	"title":"Bắc Ninh Việt Nam"
    },
    {
    	"name":"bentre",
    	"lat":"10.108155",
    	"lng":"106.440587",
    	"title":"Bến Tre, Việt Nam"
    },
    {
    	"name":"binhdinh",
    	"lat":"13.759660",
    	"lng":"109.206123",
    	"title":"Bình Định, Việt Nam"
    },
    {
    	"name":"binhduong",
    	"lat":"10.924067",
    	"lng":"106.713028",
    	"title":"Bình Dương, Việt Nam"
    },
    {
    	"name":"binhphuoc",
    	"lat":"11.751189",
    	"lng":"106.723464",
    	"title":"Bình Phước, Việt Nam"
    },
    {
    	"name":"binhthuan",
    	"lat":"11.317883",
    	"lng":"108.657959",
    	"title":"Bình Thuận, Việt Nam"
    },
    {
    	"name":"camau",
    	"lat":"9.17682",
    	"lng":"105.15242",
    	"title":"Cà Mau, Việt Nam"
    },
    {
    	"name":"cantho",
    	"lat":"10.045162",
    	"lng":"105.746857",
    	"title":"Cần Thơ, Việt Nam"
    },
    {
    	"name":"caobang",
    	"lat":"22.679281",
    	"lng":"106.260452",
    	"title":"Cao Bằng, Việt Nam"
    },
    {
    	"name":"daklak",
    	"lat":"12.710012",
    	"lng":"108.237752",
    	"title":"Đắk Lắk, Việt Nam"
    },
    {
    	"name":"daknong",
    	"lat":"12.264648",
    	"lng":"107.609806",
    	"title":"Đắk Nông, Việt Nam"
    },
    {
    	"name":"dienbien",
    	"lat":"21.626793",
    	"lng":"103.158875",
    	"title":"Điện Biên, Việt Nam"
    }
  ],
	"coordinatesBankDaNang": [
    {
    	"name":"vietcombankdanang",
    	"lat":"16.0733692",
    	"lng":"108.2197827",
    	"title":"142 Lê Lợi, Thạch Thang, Hải Châu, Đà Nẵng, Việt Nam"
    },
    {
    	"name":"dongabankdanang",
    	"lat":"16.0601334",
    	"lng":"108.2146009",
    	"title":"167 Nguyễn Văn Linh, Nam Dương, Hải Châu, Đà Nẵng, Việt Nam"
    },
    {
    	"name":"nganhangquoctevibdanang",
    	"lat":"16.0591054",
    	"lng":"108.2067103",
    	"title":"280-282-284 Nguyễn Văn Linh, Thạc Gián, Thanh Khê, Đà Nẵng, Việt Nam"
    },
    {
    	"name":"nganhangtmcpcongthuongvietnam-chinhanhdanang",
    	"lat":"16.0603764",
    	"lng":"108.210261",
    	"title":"218 Nguyễn Văn Linh, Vĩnh Trung, Hải Châu, Đà Nẵng, Việt Nam"
    },
    {
    	"name":"nganhangbanviet-danang",
    	"lat":"16.058673",
    	"lng":"108.2065141",
    	"title":"269 Nguyễn Văn Linh, Thạc Gián, Thanh Khê, Đà Nẵng, Việt Nam"
    },
    {
    	"name":"nganhangshb-cndanang",
    	"lat":"16.0600397",
    	"lng":"108.2136033",
    	"title":"207 Nguyễn Văn Linh, Nam Dương, Hải Châu, Đà Nẵng, Việt Nam"
    },
    {
    	"name":"nganhangtmcpkythuongvietnam(techcombank)-cndanang",
    	"lat":"16.0593868",
    	"lng":"108.2111418",
    	"title":"Tòa nhà Thành Lợi 2, số 01 Lê Đình Lý, phường Vĩnh Trung, Việt Nam"
    },
    {
    	"name":"nganhangtmcpbaca-chinhanhdannang",
    	"lat":"16.0596893",
    	"lng":"108.2081618",
    	"title":"234 Nguyễn Văn Linh, Thạc Gián, Thanh Khê, Đà Nẵng, Việt Nam"
    },
    {
    	"name":"nganhangbaoviet-cndanang",
    	"lat":"16.0603789",
    	"lng":"108.2129214",
    	"title":"132 Nguyễn Văn Linh, Nam Dương, Hải Châu, Đà Nẵng, Việt Nam"
    },
    {
    	"name":"oceanbankdanang",
    	"lat":"16.0620285",
    	"lng":"108.2107209",
    	"title":"80-82 Hàm Nghi, Thạc Gián, Thanh Khê, Đà Nẵng, Việt Nam"
    },
    {
    	"name":"nganhangcongthuongvietnam-vietinbankchinhanhkhuvuclienchieu-phonggiaodichthanhkhe",
    	"lat":"16.0654228",
    	"lng":"108.1964549",
    	"title":"201 Đường Điện Biên Phủ, Phường Chính Gián, Quận Thanh Khê, Đà Nẵng, Việt Nam"
    },
    {
    	"name":"vietbank-chinhanhdannang",
    	"lat":"16.0599846",
    	"lng":"108.2128218",
    	"title":"121 Nguyễn Văn Linh, Vĩnh Trung, Thanh Khê, Đà Nẵng, Việt Nam"
    },
    {
    	"name":"vietabankthanhkhe",
    	"lat":"16.0658402",
    	"lng":"108.2103736",
    	"title":"64 Hàm Nghi, Thạc Gián, Thanh Khê, Đà Nẵng, Việt Nam"
    },
    {
    	"name":"nganhangkienlong",
    	"lat":"16.0603285",
    	"lng":"108.2122976",
    	"title":"158 - 160 Nguyễn Văn Linh, Phường Vĩnh Trung, Đà Nẵng, Việt Nam"
    },
    {
    	"name":"seabankdanang",
    	"lat":"16.0590009",
    	"lng":"108.207325",
    	"title":"373 Nguyễn Văn Linh, Thạc Gián, Thanh Khê, Đà Nẵng, Việt Nam"
    },
    {
    	"name":"nganhangquocte-vibthanhkhe",
    	"lat":"16.0653609",
    	"lng":"108.1991812",
    	"title":"125 Điện Biên Phủ, Chính Gián, Thanh Khê, Đà Nẵng, Việt Nam"
    },
    {
    	"name":"tpbankdanang",
    	"lat":"16.0589817",
    	"lng":"108.2076986",
    	"title":"Tầng trệt tòa nhà Bưu Điện Đà Nẵng, 217 Nguyễn Văn Linh, Thạc Gián, Thanh Khê, Đà Nẵng, Việt Nam"
    },
    {
    	"name":"vpbanknguyentriphuong",
    	"lat":"16.0560726",
    	"lng":"108.2079575",
    	"title":"05 Nguyễn Hữu Thọ, Hòa Thuận Nam, Hải Châu, Đà Nẵng, Việt Nam"
    },
    {
    	"name":"nganhnagtmcpsaigonhanoi",
    	"lat":"16.0600976",
    	"lng":"108.2136513",
    	"title":"205 - 207, Nguyễn Văn Linh, Phường Nam Dương, Quận Hải Châu, Thành Phố Đà Nẵng, Vĩnh Trung, Thanh Khê, Đà Nẵng, Việt Nam"
    },
    {
    	"name":"nganhangtmcplienviet-lienvietbank",
    	"lat":"16.0604977",
    	"lng":"108.214245",
    	"title":"84 Nguyễn Văn Linh, Nam Dương, Hải Châu, Đà Nẵng, Việt Nam"
    },
    {
    	"name":"phonggiaodichdongda-nganhangbacachinhanhdannang",
    	"lat":"16.0753719",
    	"lng":"108.2152409",
    	"title":"237 Đống Đa, Thạch Thang, Hải Châu, Đà Nẵng, Việt Nam"
    },
    {
    	"name":"nganhangtmcpdongnama(seabank)-pgddienbienphu",
    	"lat":"16.0654197",
    	"lng":"108.1860203",
    	"title":"505 Điện Biên Phủ, Thanh Khê Đông, Thanh Khê, Đà Nẵng, Việt Nam"
    },
    {
    	"name":"nganhangdaukhitoancau(gpbank)-chinhanhdanang",
    	"lat":"16.065375",
    	"lng":"108.1852655",
    	"title":"525 Điện Biên Phủ, Thanh Khê Đông, Thanh Khê, Đà Nẵng, Việt Nam"
    },
    {
    	"name":"nganhangnhanuocvietnam(statebank)-chinhanhdanang",
    	"lat":"16.0713809",
    	"lng":"108.2231517",
    	"title":"5 Lê Duẩn, Hải Châu 1, Hải Châu, Đà Nẵng, Việt Nam"
    },
    {
    	"name":"acbdanang",
    	"lat":"16.0647462",
    	"lng":"108.2238209",
    	"title":"218 Bạch Đằng, Phước Ninh, Hải Châu, Đà Nẵng, Việt Nam"
    },
    {
    	"name":"vietinbankdanang-pgdcamle",
    	"lat":"16.0323125",
    	"lng":"108.2090271",
    	"title":"539 Nguyễn Hữu Thọ, Khuê Trung, Cẩm Lệ, Đà Nẵng, Việt Nam"
    },
    {
    	"name":"bidvledinhly",
    	"lat":"16.0538885",
    	"lng":"108.2112919",
    	"title":"132 Lê Đình Lý, Vĩnh Trung, Thanh Khê, Đà Nẵng, Việt Nam"
    },
    {
    	"name":"pgdhaichau-nganhangocb",
    	"lat":"16.068024",
    	"lng":"108.2156092",
    	"title":"92 Đ. Chi Lăng, Hải Châu 2, Hải Châu, Đà Nẵng, Việt Nam"
    },
    {
    	"name":"",
    	"lat":"16",
    	"lng":"108",
    	"title":""
    },
    {
    	"name":"",
    	"lat":"16",
    	"lng":"108",
    	"title":""
    },
    {
    	"name":"",
    	"lat":"16",
    	"lng":"108",
    	"title":""
    },
    {
    	"name":"",
    	"lat":"16",
    	"lng":"108",
    	"title":""
    },
    {
    	"name":"",
    	"lat":"16",
    	"lng":"108",
    	"title":""
    },
    {
    	"name":"",
    	"lat":"16",
    	"lng":"108",
    	"title":""
    },
    {
    	"name":"",
    	"lat":"16",
    	"lng":"108",
    	"title":""
    },
    {
    	"name":"",
    	"lat":"16",
    	"lng":"108",
    	"title":""
    },
    {
    	"name":"",
    	"lat":"16",
    	"lng":"108",
    	"title":""
    },
    {
    	"name":"",
    	"lat":"16",
    	"lng":"108",
    	"title":""
    }
  ]
}