{
	"coordinates": [
    {
    	"name":"Đà Nẵng",
    	"lat":"16.047079",
    	"lng":"108.206230",
    	"title":"Đà Nẵng, Việt Nam",
    	"content":"Toàn thành phố có diện tích 1.255,53 km² (trong đó phần đất liền là 950,53 km²; phần huyện đảo Hoàng Sa là 305 km²). Đà Nẵng hiện tại có tất cả là 6 quận, và 2 huyện là Hòa Vang và huyện đảo Hoàng Sa.Thành phố Đà Nẵng trải dài từ 15°15' đến 16°40' Bắc và từ 107°17' đến 108°20' Đông.<br>Phía bắc giáp tỉnh Thừa Thiên-Huế, phía tây và nam giáp tỉnh Quảng Nam, phía đông giáp biển Đông. Trung tâm thành phố cách thủ đô Hà Nội 764km về phía Bắc, cách Thành phố Hồ Chí Minh 964km về phía Nam, cách kinh đô thời cận đại của Việt Nam là thành phố Huế 108 km về hướng Tây Bắc."
    },
    {
    	"name":"Hà Nội",
    	"lat":"21.027763",
    	"lng":"105.834160",
    	"title":"Hà Nội, Việt Nam",
    	"content":"Tọa độ địa lí: Hà Nội hiện nay có vị trí từ 20°53' đến 21°23' vĩ độ Bắc và 105°44' đến 106°02' kinh độ Đông, tiếp giáp với các tỉnh Thái Nguyên - Vĩnh Phúc ở phía Bắc; Hà Nam - Hòa Bình ở phía Nam; Bắc Giang- Bắc Ninh- Hưng Yên ở phía Đông và Hòa Bình- Phú Thọ ở phía Tây."
    },
    {
    	"name":"Hồ Chí Minh",
    	"lat":"10.82302",
    	"lng":"106.62965",
    	"title":"Hồ Chí Minh, Việt Nam",
    	"content":"TP. Hồ Chí Minh nằm trong toạ độ địa lý khoảng 10 0 10' – 10 0 38 vĩ độ bắc và 106 0 22' – 106 054 ' kinh độ đông . Phía Bắc giáp tỉnh Bình Dương, Tây Bắc giáp tỉnh Tây Ninh , Đông và Đông Bắc giáp tỉnh Đồng Nai, Đông Nam giáp tỉnh Bà Rịa -Vũng Tàu, Tây và Tây Nam giáp tỉnh Long An và Tiền Giang."
    },
    {
    	"name":"An Giang",
    	"lat":"10.521584",
    	"lng":"105.125896",
    	"title":"An Giang, Việt Nam",
    	"content":"Tỉnh An Giang có diện tích 3.536,7 km², bằng 1,03% diện tích cả nước và đứng thứ 4 so với 13 tỉnh đồng bằng sông Cửu Long, có vị trí địa lý: Phía đông giáp tỉnh Đồng Tháp. Phía bắc và tây bắc giáp hai tỉnh Kandal và Takéo của Campuchia với đường biên giới dài gần 104 km."
    },
    {
    	"name":"Bà Rịa - Vũng Tàu",
    	"lat":"10.50857380403518",
    	"lng":"107.17963700000001",
    	"title":"Bà Rịa - Vũng Tàu, Việt Nam",
    	"content":"Bà Rịa - Vũng Tàu nằm ở miền Đông Nam Bộ, tiếp giáp tỉnh Đồng Nai ở phía Bắc, với thành phố Hồ Chí Minh ở phía Tây, với tỉnh Bình Thuận ở phía Đông, còn phía Nam giáp Biển Đông. Vị trí này rất đặc biệt, đây chính là cửa ngõ hướng ra biển Đông của các tỉnh trong khu vực miền Đông Nam Bộ."
    },
    {
    	"name":"Bắc Giang",
    	"lat":"21.301495",
    	"lng":"106.629130",
    	"title":"Bắc Giang, Việt Nam",
    	"content":"Địa lý Vị trí: Là một tỉnh thuộc vùng đông bắc Bắc Bộ, phía đông giáp tỉnh Quảng Ninh, phía bắc giáp tỉnh Lạng Sơn, phía tây giáp tỉnh Thái Nguyên và thành phố Hà Nội và phía nam giáp tỉnh Bắc Ninh và tỉnh Hải Dương. Bắc Giang có diện tích tự nhiên 3.895,5,4 km², chiếm 1,2% diện tích tự nhiên của Việt Nam."
    },
    {
    	"name":"Bắc Kạn",
    	"lat":"22.14701",
    	"lng":"105.83481",
    	"title":"Bắc Kạn, Việt Nam",
    	"content":"Bắc Kạn là tỉnh nội địa, ở vị trí trung tâm các tỉnh thuộc khu Việt Bắc cũ, phía Đông giáp tỉnh Lạng Sơn, phía Tây giáp tỉnh Tuyên Quang, phía Nam giáp tỉnh Thái Nguyên, phía Bắc giáp tỉnh Cao Bằng; thị xã tỉnh lỵ cách Thủ đô Hà Nội 170 km theo đường Quốc lộ 3."
    },
    {
    	"name":"Bạc Liêu",
    	"lat":"9.251556",
    	"lng":"105.513649",
    	"title":"Bạc Liêu, Việt Nam",
    	"content":"Tỉnh Bạc Liêu nằm trên bán đảo Cà Mau, thuộc Đồng bằng sông Cửu Long, cực nam của (Việt Nam), với diện tích đất tự nhiên là 2.669 km2, chiếm gần 0,8% diện tích cả nước và đứng thứ 7 trong khu vực Đồng bằng sông Cửu Long, có vị trí địa lý: ... Phía đông và đông bắc giáp với tỉnh Sóc Trăng. Phía tây nam giáp với tỉnh Cà Mau."
    },
    {
    	"name":"Bắc Ninh",
    	"lat":"21.18608",
    	"lng":"106.07631",
    	"title":"Bắc Ninh Việt Nam",
    	"content":"Bắc Ninh là một tỉnh cửa ngõ phía Bắc của Thủ đô Hà Nội, trung tâm xứ Kinh Bắc cổ xưa, mảnh đất địa linh nhân kiệt, nơi có truyền thống khoa bảng và nền văn hóa lâu đời. Phía Bắc giáp tỉnh Bắc Giang, phía Tây và Tây Nam giáp thủ đô Hà Nội, phía Nam giáp tỉnh Hưng Yên, phía Đông giáp tỉnh Hải Dương."
    },
    {
    	"name":"Bến Tre",
    	"lat":"10.108155",
    	"lng":"106.440587",
    	"title":"Bến Tre, Việt Nam",
    	"content":"Bến Tre là một tỉnh thuộc Vùng Đồng bằng sông Cửu Long, có diện tích tự nhiên là: 2.360,2 km2, được hình thành bởi cù lao An Hoá, cù lao Bảo, cù lao Minh và do phù sa của 4 nhánh sông Cửu Long bồi tụ mà thành (gồm sông Tiền, sông Ba Lai, sông Hàm Luông, sông Cổ Chiên)."
    },
    {
    	"name":"Bình Định",
    	"lat":"13.759660",
    	"lng":"109.206123",
    	"title":"Bình Định, Việt Nam",
    	"content":"Bình Định là tỉnh duyên hải Nam Trung bộ, nằm trong vùng kinh tế trọng điểm miền Trung. Lãnh thổ của tỉnh trải dài 110 km theo hướng Bắc - Nam, diện tích tự nhiên: 6.071,3 km², diện tích vùng lãnh hải: 36.000 km². Phía Bắc giáp tỉnh Quảng Ngãi, điểm cực Bắc có tọa độ: 14°42'10 Bắc, 108°55'4 Đông."
    },
    {
    	"name":"Bình Dương",
    	"lat":"10.924067",
    	"lng":"106.713028",
    	"title":"Bình Dương, Việt Nam",
    	"content":"Tỉnh Bình Dương thuộc miền Đông Nam Bộ, nằm trong vùng kinh tế trọng điểm phía Nam, với diện tích 2694,4 km2, xếp thứ 4 trong vùng Đông Nam Bộ. Có tọa độ địa lý là 10o51'46'B – 11o30'B, 106o20' Đ – 106o58'Đ. Phía Tây giáp tỉnh Tây Ninh và Thành phố Hồ Chí Minh."
    },
    {
    	"name":"Bình Phước",
    	"lat":"11.751189",
    	"lng":"106.723464",
    	"title":"Bình Phước, Việt Nam",
    	"content":"Bình Phước là một tỉnh miền núi ở phía Tây của vùng Đông Nam Bộ, phía Đông giáp tỉnh Lâm Đồng và Đồng Nai, phía Tây giáp tỉnh Tây Ninh và Campuchia, phía Nam giáp tỉnh Bình Dương và phía Bắc tỉnh Đắk Lắk và Campuchia."
    },
    {
    	"name":"Bình Thuận",
    	"lat":"11.317883",
    	"lng":"108.657959",
    	"title":"Bình Thuận, Việt Nam",
    	"content":"Bình Thuận là tỉnh duyên hải cực Nam Trung Bộ, , có toạ độ địa lý 107°24'- 108°23' kinh độ Đông, 10°33'N - 11°33' vĩ độ bắc , có tổng diện tích: 7.810,4 km² với bờ biển dài 192 km, diện tích vùng lãnh hải: 52.000 km², từ mũi Đá Chẹt giáp Cà Ná, Ninh Thuận đến bãi bồi Bình Châu, Bà Rịa-Vũng Tàu."
    },
    {
    	"name":"Cà Mau",
    	"lat":"9.17682",
    	"lng":"105.15242",
    	"title":"Cà Mau, Việt Nam",
    	"content":"Cà Mau là tỉnh cực nam của Việt Nam, thuộc khu vực Đồng bằng châu thổ sông Cửu Long. Cà Mau nằm ở 8o34' đến 9o33' vĩ độ Bắc và 104o43' đến 105o25' kinh độ Đông, cách Thành phố Hồ Chí Minh 370 km, cách thành phố Cần Thơ 180 km về phía nam. Theo đường chim bay, từ bắc tới nam dài 100 km."
    },
    {
    	"name":"Cần Thơ",
    	"lat":"10.045162",
    	"lng":"105.746857",
    	"title":"Cần Thơ, Việt Nam",
    	"content":"Cần Thơ có tọa độ địa lý 105°13'38' – 105°50'35' kinh độ Đông và 9°55'08' – 10°19'38' vĩ độ Bắc, trải dài trên 60 km dọc bờ Tây sông Hậu. Phía bắc giáp tỉnh An Giang, phía đông giáp tỉnh Đồng Tháp và tỉnh Vĩnh Long, phía tây giáp tỉnh Kiên Giang, phía nam giáp tỉnh Hậu Giang. Diện tích nội thành là 53 km²."
    },
    {
    	"name":"Cao Bằng",
    	"lat":"22.679281",
    	"lng":"106.260452",
    	"title":"Cao Bằng, Việt Nam",
    	"content":"Tỉnh Cao Bằng nằm ở phía đông bắc Việt Nam, có vị trí địa lý: Phía bắc và đông bắc giáp với khu tự trị Quảng Tây (Trung Quốc) với đường biên giới dài 333,403 km. ... Phía nam giáp các tỉnh Bắc Kạn và Lạng Sơn."
    },
    {
    	"name":"Đắk Lắk",
    	"lat":"12.710012",
    	"lng":"108.237752",
    	"title":"Đắk Lắk, Việt Nam",
    	"content":"Tỉnh Đắk Lắk nằm ở trung tâm vùng Tây Nguyên, đầu nguồn của hệ thống sông Sêrêpôk và một phần của sông Ba, nằm trong khoảng tọa độ địa lý từ 107o28'57' đến 108o59'37' độ kinh Đông và từ 12o9'45' đến 13o25'06' độ vĩ Bắc, có độ cao trung bình 400 – 800 mét so với mặt nước biển, nằm cách Hà Nội 1.410 km"
    },
    {
    	"name":"Đắk Nông",
    	"lat":"12.264648",
    	"lng":"107.609806",
    	"title":"Đắk Nông, Việt Nam",
    	"content":"Đắk Nông nằm ở cửa ngõ phía tây nam của Tây Nguyên, nằm trong vùng tọa độ từ 11°45 đến 12°50 vĩ độ bắc và từ 107°12 đến 108°07 kinh độ đông. Trung tâm tỉnh Đắk Nông là thành phố Gia Nghĩa nằm cách thành phố Buôn Ma Thuột với chiều dài 125 km theo đường quốc lộ 14, cách thành phố Hồ Chí Minh khoảng 250 km về phía nam."
    },
    {
    	"name":"Điện Biên",
    	"lat":"21.626793",
    	"lng":"103.158875",
    	"title":"Điện Biên, Việt Nam",
    	"content":"Điện Biên là tỉnh miền núi biên giới thuộc vùng Tây Bắc, cách thủ đô Hà Nội gần 500 km về phía Tây; phía Bắc giáp tỉnh Lai Châu, phía Đông và Đông Bắc giáp tỉnh Sơn La, phía Tây Bắc giáp tỉnh Vân Nam – Trung Quốc; phía Tây và Tây Nam giáp với nước Cộng hoà Dân chủ Nhân dân Lào."
    },
    {
    	"name":"Biên Hòa",
    	"lat":"10.964112",
    	"lng":"106.856461",
    	"title":"Biên Hòa, Việt Nam",
    	"content":"Thành phố Biên Hòa nằm ở phía tây tỉnh Đồng Nai, có vị trí địa lý: Phía bắc giáp huyện Vĩnh Cửu. Phía nam giáp huyện Long Thành. ... Phía tây giáp thị xã Tân Uyên, thành phố Dĩ An, tỉnh Bình Dương và Quận 9, Thành phố Hồ Chí Minh."
    },
    {
    	"name":"Đồng Tháp ",
    	"lat":"10.493799",
    	"lng":"105.688179",
    	"title":"Đồng Tháp, Việt Nam",
    	"content":"Đồng Tháp là tỉnh thuộc vùng đồng bằng sông Cửu Long, có diện tích tự nhiên là 3375,4 km2. ... Tỉnh lỵ của Đồng Tháp hiện nay là thành phố Cao Lãnh, cách thành phố Hồ Chí Minh 165 km về phía Tây Nam."
    },
    {
    	"name":"Gia Lai",
    	"lat":"13.602778",
    	"lng":"107.642927",
    	"title":"Gia Lai, Việt Nam",
    	"content":"Gia Lai là một tỉnh vùng cao nằm ở phía bắc Tây Nguyên trên độ cao trung bình 700 - 800 mét so với mực nước biển. Tỉnh Gia Lai trải dài từ 12°58'20' đến 14°36'30' vĩ bắc, từ 107°27'23' đến 108°54'40'kinh đông. ... Phía tây giáp tỉnh Ratanakiri thuộc Campuchia, có đường biên giới chạy dài khoảng 90 km."
    },
    {
    	"name":"Thừa Thiên Huế",
    	"lat":"16.461109",
    	"lng":"107.570183",
    	"title":"Thừa Thiên Huế, Việt Nam",
    	"content":"Tỉnh Thừa Thiên Huế nằm ở duyên hải miền trung Việt Nam bao gồm phần đất liền và phần lãnh hải thuộc thềm lục địa biển Đông. Phần đất liền Thừa Thiên Huế có tọa độ địa lý như sau: Điểm cực Bắc: 16044'30'' vĩ Bắc và 107023'48'' kinh Đông tại thôn Giáp Tây, xã Điền Hương, huyện Phong Điền."
    },
    {
    	"name":"Điên ",
    	"lat":"21",
    	"lng":"103",
    	"title":"Điện Biên, Việt Nam",
    	"content":"Điện"
    },
    {
    	"name":"Điên ",
    	"lat":"21",
    	"lng":"103",
    	"title":"Điện Biên, Việt Nam",
    	"content":"Điện"
    },
    {
    	"name":"Điên ",
    	"lat":"21",
    	"lng":"103",
    	"title":"Điện Biên, Việt Nam",
    	"content":"Điện"
    },
    {
    	"name":"Điên ",
    	"lat":"21",
    	"lng":"103",
    	"title":"Điện Biên, Việt Nam",
    	"content":"Điện"
    },
    {
    	"name":"Điên ",
    	"lat":"21",
    	"lng":"103",
    	"title":"Điện Biên, Việt Nam",
    	"content":"Điện"
    },
    {
    	"name":"Điên ",
    	"lat":"21",
    	"lng":"103",
    	"title":"Điện Biên, Việt Nam",
    	"content":"Điện"
    },
    {
    	"name":"Điên ",
    	"lat":"21",
    	"lng":"103",
    	"title":"Điện Biên, Việt Nam",
    	"content":"Điện"
    },
    {
    	"name":"Điên ",
    	"lat":"21",
    	"lng":"103",
    	"title":"Điện Biên, Việt Nam",
    	"content":"Điện"
    },
    {
    	"name":"Điên ",
    	"lat":"21",
    	"lng":"103",
    	"title":"Điện Biên, Việt Nam",
    	"content":"Điện"
    },
    {
    	"name":"Điên ",
    	"lat":"21",
    	"lng":"103",
    	"title":"Điện Biên, Việt Nam",
    	"content":"Điện"
    },
    {
    	"name":"Điên ",
    	"lat":"21",
    	"lng":"103",
    	"title":"Điện Biên, Việt Nam",
    	"content":"Điện"
    },
    {
    	"name":"Điên ",
    	"lat":"21",
    	"lng":"103",
    	"title":"Điện Biên, Việt Nam",
    	"content":"Điện"
    },
    {
    	"name":"Điên ",
    	"lat":"21",
    	"lng":"103",
    	"title":"Điện Biên, Việt Nam",
    	"content":"Điện"
    },
    {
    	"name":"Điên ",
    	"lat":"21",
    	"lng":"103",
    	"title":"Điện Biên, Việt Nam",
    	"content":"Điện"
    },
    {
    	"name":"Điên ",
    	"lat":"21",
    	"lng":"103",
    	"title":"Điện Biên, Việt Nam",
    	"content":"Điện"
    },
    {
    	"name":"Điên ",
    	"lat":"21",
    	"lng":"103",
    	"title":"Điện Biên, Việt Nam",
    	"content":"Điện"
    },
    {
    	"name":"Điên ",
    	"lat":"21",
    	"lng":"103",
    	"title":"Điện Biên, Việt Nam",
    	"content":"Điện"
    },
    {
    	"name":"Điên ",
    	"lat":"21",
    	"lng":"103",
    	"title":"Điện Biên, Việt Nam",
    	"content":"Điện"
    },
    {
    	"name":"Điên ",
    	"lat":"21",
    	"lng":"103",
    	"title":"Điện Biên, Việt Nam",
    	"content":"Điện"
    },
    {
    	"name":"Điên ",
    	"lat":"21",
    	"lng":"103",
    	"title":"Điện Biên, Việt Nam",
    	"content":"Điện"
    },
    {
    	"name":"Điên ",
    	"lat":"21",
    	"lng":"103",
    	"title":"Điện Biên, Việt Nam",
    	"content":"Điện"
    }
  ],
"coordinatesBankDn":[
	{
    	"name":"Vietcombank Đà Nẵng",
    	"lat":"16.0733692",
    	"lng":"108.2197827",
    	"title":"Vietcombank Đà Nẵng",
    	"content":"142 Lê Lợi, Thạch Thang, Hải Châu, Đà Nẵng, Việt Nam"
    },
    {
    	"name":"Đông Á Bank Đà Nẵng",
    	"lat":"16.0601334",
    	"lng":"108.2146009",
    	"title":"Đông Á Bank Đà Nẵng",
    	"content":"167 Nguyễn Văn Linh, Nam Dương, Hải Châu, Đà Nẵng, Việt Nam"
    },
    {
    	"name":"Ngân Hàng Quốc Tế VIB Đà Nẵng",
    	"lat":"16.0591054",
    	"lng":"108.2067103",
    	"title":"Ngân Hàng Quốc Tế VIB Đà Nẵng",
    	"content":"280-282-284 Nguyễn Văn Linh, Thạc Gián, Thanh Khê, Đà Nẵng, Việt Nam"
    },
    {
    	"name":"Ngân Hàng TMCP Công Thương Việt Nam - Chi Nhánh Đà Nẵng",
    	"lat":"16.0603764",
    	"lng":"108.210261",
    	"title":"Ngân Hàng TMCP Công Thương Việt Nam - Chi Nhánh Đà Nẵng",
    	"content":"218 Nguyễn Văn Linh, Vĩnh Trung, Hải Châu, Đà Nẵng, Việt Nam"
    },
    {
    	"name":"Ngân Hàng Bản Việt - Đà Nẵng",
    	"lat":"16.058673",
    	"lng":"108.2065141",
    	"title":"Ngân Hàng Bản Việt - Đà Nẵng",
    	"content":"269 Nguyễn Văn Linh, Thạc Gián, Thanh Khê, Đà Nẵng, Việt Nam"
    },
    {
    	"name":"Ngân Hàng SHB - CN Đà Nẵng",
    	"lat":"16.0600397",
    	"lng":"108.2136033",
    	"title":"Ngân Hàng SHB - CN Đà Nẵng",
    	"content":"207 Nguyễn Văn Linh, Nam Dương, Hải Châu, Đà Nẵng, Việt Nam"
    },
    {
    	"name":"Ngân hàng TMCP Kỹ thương Việt Nam(Techcombank) - Chi nhánh Đà Nẵng",
    	"lat":"16.0593868",
    	"lng":"108.2111418",
    	"title":"Ngân hàng TMCP Kỹ thương Việt Nam(Techcombank) - Chi nhánh Đà Nẵng",
    	"content":"Tòa nhà Thành Lợi 2, số 01 Lê Đình Lý, phường Vĩnh Trung, Việt Nam"
    },
    {
    	"name":"Ngân Hàng TMCP Bắc Á - Chi Nhánh Đà Nẵng",
    	"lat":"16.0596893",
    	"lng":"108.2081618",
    	"title":"Ngân Hàng TMCP Bắc Á - Chi Nhánh Đà Nẵng",
    	"content":"234 Nguyễn Văn Linh, Thạc Gián, Thanh Khê, Đà Nẵng, Việt Nam"
    },
    {
    	"name":"Ngân hàng Bảo Việt - CN Đà Nẵng",
    	"lat":"16.0603789",
    	"lng":"108.2129214",
    	"title":"Ngân hàng Bảo Việt - CN Đà Nẵng",
    	"content":"132 Nguyễn Văn Linh, Nam Dương, Hải Châu, Đà Nẵng, Việt Nam"
    },
    {
    	"name":"OceanBank Đà Nẵng",
    	"lat":"16.0620285",
    	"lng":"108.2107209",
    	"title":"OceanBank Đà Nẵng",
    	"content":"80-82 Hàm Nghi, Thạc Gián, Thanh Khê, Đà Nẵng, Việt Nam"
    },
    {
    	"name":"Ngân Hàng Công Thương Việt Nam - VietinBank Chi Nhánh Khu Vực Liên Chiểu - Phòng Giao Dịch Thanh Khê",
    	"lat":"16.0654228",
    	"lng":"108.1964549",
    	"title":"Ngân Hàng Công Thương Việt Nam - VietinBank Chi Nhánh Khu Vực Liên Chiểu - Phòng Giao Dịch Thanh Khê",
    	"content":"201 Đường Điện Biên Phủ, Phường Chính Gián, Quận Thanh Khê, Đà Nẵng, Việt Nam"
    },
    {
    	"name":"Vietbank - Chi Nhánh Đà Nẵng",
    	"lat":"16.0599846",
    	"lng":"108.2128218",
    	"title":"Vietbank - Chi Nhánh Đà Nẵng",
    	"content":"121 Nguyễn Văn Linh, Vĩnh Trung, Thanh Khê, Đà Nẵng, Việt Nam"
    },
    {
    	"name":"VietABank Thanh Khê",
    	"lat":"16.0658402",
    	"lng":"108.2103736",
    	"title":"VietABank Thanh Khê",
    	"content":"64 Hàm Nghi, Thạc Gián, Thanh Khê, Đà Nẵng, Việt Nam"
    },
    {
    	"name":"Ngân Hàng Kiên Long",
    	"lat":"16.0603285",
    	"lng":"108.2122976",
    	"title":"Ngân Hàng Kiên Long",
    	"content":"158 - 160 Nguyễn Văn Linh, Phường Vĩnh Trung, Đà Nẵng, Việt Nam"
    },
    {
    	"name":"SeABank Đà Nẵng",
    	"lat":"16.0590009",
    	"lng":"108.207325",
    	"title":"SeABank Đà Nẵng",
    	"content":"373 Nguyễn Văn Linh, Thạc Gián, Thanh Khê, Đà Nẵng, Việt Nam"
    },
    {
    	"name":"Ngân hàng Quốc Tế - VIB Thanh Khê (tên cũ VIB Hải Châu)",
    	"lat":"16.0653609",
    	"lng":"108.1991812",
    	"title":"Ngân hàng Quốc Tế - VIB Thanh Khê (tên cũ VIB Hải Châu)",
    	"content":"125 Điện Biên Phủ, Chính Gián, Thanh Khê, Đà Nẵng, Việt Nam"
    },
    {
    	"name":"TPBank Đà Nẵng",
    	"lat":"16.0589817",
    	"lng":"108.2076986",
    	"title":"TPBank Đà Nẵng",
    	"content":"Tầng trệt tòa nhà Bưu Điện Đà Nẵng, 217 Nguyễn Văn Linh, Thạc Gián, Thanh Khê, Đà Nẵng, Việt Nam"
    },
    {
    	"name":"VPBANK NGUYỄN TRI PHƯƠNG",
    	"lat":"16.0560726",
    	"lng":"108.2079575",
    	"title":"VPBANK NGUYỄN TRI PHƯƠNG",
    	"content":"05 Nguyễn Hữu Thọ, Hòa Thuận Nam, Hải Châu, Đà Nẵng, Việt Nam"
    },
    {
    	"name":"Ngân Hàng TMCP Sài Gòn Hà Nội",
    	"lat":"16.0600976",
    	"lng":"108.2136513",
    	"title":"Ngân Hàng TMCP Sài Gòn Hà Nội",
    	"content":"205 - 207, Nguyễn Văn Linh, Phường Nam Dương, Quận Hải Châu, Thành Phố Đà Nẵng, Vĩnh Trung, Thanh Khê, Đà Nẵng, Việt Nam"
    },
    {
    	"name":"Ngân Hàng Tmcp Liên Việt - Lienviet Bank",
    	"lat":"16.0604977",
    	"lng":"108.214245",
    	"title":"Ngân Hàng Tmcp Liên Việt - Lienviet Bank",
    	"content":"84 Nguyễn Văn Linh, Nam Dương, Hải Châu, Đà Nẵng, Việt Nam"
    },
    {
    	"name":"Phòng giao dịch Đống Đa - Ngân hàng Bắc Á chi nhánh Đà Nẵng",
    	"lat":"16.0753719",
    	"lng":"108.2152409",
    	"title":"Phòng giao dịch Đống Đa - Ngân hàng Bắc Á chi nhánh Đà Nẵng",
    	"content":"237 Đống Đa, Thạch Thang, Hải Châu, Đà Nẵng, Việt Nam"
    },
    {
    	"name":"Ngân Hàng Tmcp Đông Nam Á (Seabank) - Pgd Điện Biên Phủ",
    	"lat":"16.0654197",
    	"lng":"108.1860203",
    	"title":"Ngân Hàng Tmcp Đông Nam Á (Seabank) - Pgd Điện Biên Phủ",
    	"content":"505 Điện Biên Phủ, Thanh Khê Đông, Thanh Khê, Đà Nẵng, Việt Nam"
    },
    {
    	"name":"Ngân hàng Dầu Khí Toàn Cầu (GPBank) - chi nhánh Đà Nẵng",
    	"lat":"16.065375",
    	"lng":"108.1852655",
    	"title":"Ngân hàng Dầu Khí Toàn Cầu (GPBank) - chi nhánh Đà Nẵng",
    	"content":"525 Điện Biên Phủ, Thanh Khê Đông, Thanh Khê, Đà Nẵng, Việt Nam"
    },
    {
    	"name":"Ngân hàng Nhà nước Việt Nam (State Bank) - chi nhánh Đà Nẵng",
    	"lat":"16.0713809",
    	"lng":"108.2231517",
    	"title":"Ngân hàng Nhà nước Việt Nam (State Bank) - chi nhánh Đà Nẵng",
    	"content":"5 Lê Duẩn, Hải Châu 1, Hải Châu, Đà Nẵng, Việt Nam"
    },
    {
    	"name":"ACB Đà Nẵng",
    	"lat":"16.0647462",
    	"lng":"108.2238209",
    	"title":"ACB Đà Nẵng",
    	"content":"218 Bạch Đằng, Phước Ninh, Hải Châu, Đà Nẵng, Việt Nam"
    },
    {
    	"name":"VietinBank Đà Nẵng - PGD Cẩm Lệ",
    	"lat":"16.0323125",
    	"lng":"108.2090271",
    	"title":"VietinBank Đà Nẵng - PGD Cẩm Lệ",
    	"content":"539 Nguyễn Hữu Thọ, Khuê Trung, Cẩm Lệ, Đà Nẵng, Việt Nam"
    },
    {
    	"name":"BIDV Lê Đình Lý",
    	"lat":"16.0538885",
    	"lng":"108.2112919",
    	"title":"BIDV Lê Đình Lý",
    	"content":"132 Lê Đình Lý, Vĩnh Trung, Thanh Khê, Đà Nẵng, Việt Nam"
    },
    {
    	"name":"PGD Hải Châu - Ngân hàng OCB",
    	"lat":"16.068022800000016",
    	"lng":"108.21562342405012",
    	"title":"PGD Hải Châu - Ngân hàng OCB",
    	"content":"92 Đ. Chi Lăng, Hải Châu 2, Hải Châu, Đà Nẵng, Việt Nam"
    },
    {
    	"name":"Ngân Hàng Chính Sách Xã Hội - VBSP @ Chi Nhánh Đà Nẵng",
    	"lat":"16.071336662494357",
    	"lng":"108.19213761738692",
    	"title":"Ngân Hàng Chính Sách Xã Hội - VBSP @ Chi Nhánh Đà Nẵng",
    	"content":"600 Trần Cao Vân, Xuân Hà, Thanh Khê, Đà Nẵng, Việt Nam"
    },
    {
    	"name":"SCB Đà Nẵng - Ngân hàng TMCP Sài Gòn",
    	"lat":"16.062525024063966",
    	"lng":"108.22309538709291",
    	"title":"SCB Đà Nẵng - Ngân hàng TMCP Sài Gòn",
    	"content":"256 Đường Trần Phú, Phước Ninh, Đà Nẵng, Việt Nam"
    },
    {
    	"name":"HDBank Đà Nẵng",
    	"lat":"16.068339899999998",
    	"lng":"108.21543318719306",
    	"title":"HDBank Đà Nẵng",
    	"content":"74-76-78 Đ. Chi Lăng, Hải Châu 2, Hải Châu, Đà Nẵng, Việt Nam"
    },
    {
    	"name":"ATM HDBank - Lê Duẩn",
    	"lat":"16.070080782293495",
    	"lng":"108.2120493091287",
    	"title":"ATM HDBank - Lê Duẩn",
    	"content":"238 Lê Duẩn, Tân Chính, Thanh Khê, Đà Nẵng, Việt Nam"
    },
    {
    	"name":"HDBank Nguyễn Văn Linh",
    	"lat":"16.060362785711582",
    	"lng":"108.21263363827725",
    	"title":"HDBank Nguyễn Văn Linh",
    	"content":"194 Nguyễn Văn Linh, Vĩnh Trung, Thanh Khê, Đà Nẵng, Việt Nam"
    },
    {
    	"name":"Ngân Hàng Nông Nghiệp & Phát Triển Nông Thôn Việt Nam (Agribank) - Pgd Hòa Minh",
    	"lat":"16.05868767894356",
    	"lng":"108.17424758664558",
    	"title":"Ngân Hàng Nông Nghiệp & Phát Triển Nông Thôn Việt Nam (Agribank) - Pgd Hòa Minh",
    	"content":"135 Tôn Đức Thắng, Hoà Minh, Cẩm Lệ, Đà Nẵng, Việt Nam"
    },
    {
    	"name":"Ngân Hàng TMCP Sài Gòn Công Thương - CN Đà Nẵng",
    	"lat":"16.066140300000004",
    	"lng":"108.22443010000002",
    	"title":"Ngân Hàng TMCP Sài Gòn Công Thương - CN Đà Nẵng",
    	"content":"186, Bạch Đằng, Phường Hải Châu 1, Quận Hải Châu, Thành Phố Đà Nẵng, Việt Nam"
    },
    {
    	"name":"Ngân hàng TMCP Hàng hải Việt Nam (Maritime Bank)",
    	"lat":"16.05461058598868",
    	"lng":"108.22041930534242",
    	"title":"Ngân hàng TMCP Hàng hải Việt Nam (Maritime Bank)",
    	"content":"1 Núi Thành, Bình Thuận, Hải Châu, Đà Nẵng, Việt Nam"
    },
    {
    	"name":"Ngân Hàng Tmcp Hàng Hải Việt Nam (Maritime Bank) - Pgd Chợ Cồn",
    	"lat":"16.069915196497558",
    	"lng":"108.21351511298091",
    	"title":"Ngân Hàng Tmcp Hàng Hải Việt Nam (Maritime Bank) - Pgd Chợ Cồn",
    	"content":"211 Ông Ích Khiêm, Hải Châu 2, Hải Châu, Đà Nẵng, Việt Nam"
    },
    {
    	"name":"Eximbank Đà Nẵng",
    	"lat":"16.070993500000014",
    	"lng":"108.22384260000001",
    	"title":"Eximbank Đà Nẵng",
    	"content":"48 Đường Trần Phú, Hải Châu 1, Hải Châu, Đà Nẵng, Việt Nam"
    },
    {
    	"name":"Ngân hàng Xuất Nhập khẩu (Eximbank) - PGD Điện Biên Phủ",
    	"lat":"16.06554360983611",
    	"lng":"108.18838917238705",
    	"title":"Ngân hàng Xuất Nhập khẩu (Eximbank) - PGD Điện Biên Phủ",
    	"content":"433 Điện Biên Phủ, Hòa Khê, Thanh Khê, Đà Nẵng, Việt Nam"
    },
    {
    	"name":"Eximbank Chợ Cồn",
    	"lat":"16.067091336438164",
    	"lng":"108.21279057697353",
    	"title":"Eximbank Chợ Cồn",
    	"content":"336 Hùng Vương, Vĩnh Trung, Thanh Khê, Đà Nẵng, Việt Nam"
    },
    {
    	"name":"Ngân hàng Shinhan",
    	"lat":"16.060847300000013",
    	"lng":"108.22290900000002",
    	"title":"Ngân hàng Shinhan",
    	"content":"1 Nguyễn Văn Linh, Bình Hiên, Hải Châu, Đà Nẵng, Việt Nam"
    },
    {
    	"name":"Agribank Nguyễn Tri Phương",
    	"lat":"16.04366595556484",
    	"lng":"108.20989353466445",
    	"title":"Agribank Nguyễn Tri Phương",
    	"content":"156 Nguyễn Hữu Thọ, Hòa Thuận Nam, Hải Châu, Đà Nẵng, Việt Nam"
    },
    {
    	"name":"MB Cẩm Lệ",
    	"lat":"16.035561911305706",
    	"lng":"108.20950999264238",
    	"title":"MB Cẩm Lệ",
    	"content":"324 Nguyễn Hữu Thọ, Khuê Trung, Cẩm Lệ, Đà Nẵng, Việt Nam"
    },
    {
    	"name":"VPBANK HÀM NGHI",
    	"lat":"16.0629522553046",
    	"lng":"108.21070475214958",
    	"title":"VPBANK HÀM NGHI",
    	"content":"104 Đường Hàm Nghi, Thạc Gián, Thanh Khê, Đà Nẵng, Việt Nam"
    },
    {
    	"name":"Vietbank - PGD Sơn Trà",
    	"lat":"16.066142906199726",
    	"lng":"108.23318397582898",
    	"title":"Vietbank - PGD Sơn Trà",
    	"content":"885 Ngô Quyền, An Hải Bắc, Sơn Trà, Đà Nẵng, Việt Nam"
    },
    {
    	"name":"Agribank Hải Châu",
    	"lat":"16.065794200000013",
    	"lng":"108.22030160000003",
    	"title":"Agribank Hải Châu",
    	"content":"107 Phan Châu Trinh, Phước Ninh, Hải Châu, Đà Nẵng, Việt Nam"
    },
    {
    	"name":"Vietbank- CN Hùng Vương",
    	"lat":"16.068267848199632",
    	"lng":"108.21842989969416",
    	"title":"Vietbank- CN Hùng Vương",
    	"content":"158 Hùng Vương, Hải Châu 1, Hải Châu, Đà Nẵng, Việt Nam"
    },
    {
    	"name":"Ngân Hàng Thương Mại Cổ Phần Quốc Dân",
    	"lat":"16.0668846606429",
    	"lng":"108.20754946955799",
    	"title":"Ngân Hàng Thương Mại Cổ Phần Quốc Dân",
    	"content":"441 Lê Duẩn, Thạc Gián, Thanh Khê, Đà Nẵng, Việt Nam"
    },
    {
    	"name":"Ngân hàng Việt Nam Thương Tín - VietBank",
    	"lat":"16.06043178592359",
    	"lng":"108.21601896141466",
    	"title":"Ngân hàng Việt Nam Thương Tín - VietBank",
    	"content":"119-121 Nguyễn Văn Linh, Nam Dương, Hải Châu, Đà Nẵng, Việt Nam"
    },
    {
    	"name":"SHB - PGD Đống Đa",
    	"lat":"16.078606922490856",
    	"lng":"108.21711287745725",
    	"title":"SHB - PGD Đống Đa",
    	"content":"202 Đống Đa, Thuận Phước, Hải Châu, Đà Nẵng, Việt Nam"
    },
    {
    	"name":"Vietinbank Sông Hàn",
    	"lat":"16.066408600000013",
    	"lng":"108.22224689999999",
    	"title":"Vietinbank Sông Hàn",
    	"content":"36 Trần Quốc Toản, Hải Châu 1, Hải Châu, Đà Nẵng, Việt Nam"
    },
    {
    	"name":"ABBank Hải Châu",
    	"lat":"16.080254300000025",
    	"lng":"108.21822199999998",
    	"title":"ABBank Hải Châu",
    	"content":"128 Đống Đa, Thuận Phước, Hải Châu, Đà Nẵng, Việt Nam"
    },
    {
    	"name":"Sacombank Cẩm Lệ",
    	"lat":"16.01582989999997",
    	"lng":"108.20522199999998",
    	"title":"Sacombank Cẩm Lệ",
    	"content":"179 Ông Ích Đường, Khuê Trung, Cẩm Lệ, Đà Nẵng, Việt Nam"
    },
    {
    	"name":"Ngân hàng Bản Việt - Chi Lăng",
    	"lat":"16.07154690000002",
    	"lng":"108.21867860000003",
    	"title":"Ngân hàng Bản Việt - Chi Lăng",
    	"content":"89 Nguyễn Thị Minh Khai, P, Hải Châu, Đà Nẵng, Việt Nam"
    },
    {
    	"name":"ACB Hòa Cường",
    	"lat":"16.042543400000003",
    	"lng":"108.22146470000003",
    	"title":"ACB Hòa Cường",
    	"content":"296 Núi Thành, Hoà Cường Bắc, Hải Châu, Đà Nẵng, Việt Nam"
    },
    {
    	"name":"Nam A Bank",
    	"lat":"16.0601794564534",
    	"lng":"108.2143071364799",
    	"title":"Nam A Bank",
    	"content":"183 Nguyễn Văn Linh, Nam Dương, Hải Châu, Đà Nẵng, Việt Nam"
    },
    {
    	"name":"CB Lê Độ",
    	"lat":"16.06549565129922",
    	"lng":"108.19517390976972",
    	"title":"CB Lê Độ",
    	"content":"229 Điện Biên Phủ, Chính Gián, Thanh Khê, Đà Nẵng, Việt Nam"
    },
    {
    	"name":"Agribank Chi Nhánh Chợ Mới Đà Nẵng",
    	"lat":"16.05345910000003",
    	"lng":"108.21900000000001",
    	"title":"Agribank Chi Nhánh Chợ Mới Đà Nẵng",
    	"content":"221 Trưng Nữ Vương, Hòa Thuận Đông, Hải Châu, Đà Nẵng, Việt Nam"
    },
    {
    	"name":"",
    	"lat":"16",
    	"lng":"108",
    	"title":"Vietcombank Đà Nẵng",
    	"content":""
    }
  ]
}